{
    "list": [
        {
            "latitude": -8.838026,
            "longitude": 13.236305,
            "distance": 0.3074385211247332,
            "name": "EMIS",
            "city": "LUANDA",
            "address": "Bº MÁRTIRES DE KIFANGONDO, RUA 5, Nº 30",
            "postalCode": "0000",
            "countryCode": "ago",
            "locationType": "outros",
            "locationName": "AGÊNCIA MÁRTIRES DE KIFANGONDO",
            "owner": "EMIS",
            "currencyCode": "AOA"
        },
        {
            "latitude": -8.837335,
            "longitude": 13.235712,
            "distance": 0.3859715796718573,
            "name": "EMIS",
            "city": "LUANDA",
            "address": "AVENIDA HO CHI MINH",
            "postalCode": "",
            "countryCode": "ago",
            "locationType": "office_building",
            "locationName": "ATM GARDEN TOWER GIKA -",
            "owner": "EMIS",
            "currencyCode": "AOA"
        },
        {
            "latitude": -8.844136,
            "longitude": 13.234958,
            "distance": 0.3935602121262884,
            "name": "EMIS",
            "city": "LUANDA",
            "address": "RUA Nº 18",
            "postalCode": "0000",
            "countryCode": "ago",
            "locationType": "super_market",
            "locationName": "ATM-DOZAN_SUPERMERCADO CANTINA",
            "owner": "EMIS",
            "currencyCode": "AOA"
        },
        {
            "latitude": -8.83711,
            "longitude": 13.235521,
            "distance": 0.41358996693143274,
            "name": "EMIS",
            "city": "CACUACO",
            "address": "TRAVESSA HO CHI MIN EDIFICIO NES",
            "postalCode": "0000",
            "countryCode": "ago",
            "locationType": "outros",
            "locationName": "AGÊNCIA BAI SEDE",
            "owner": "EMIS",
            "currencyCode": "AOA"
        },
        {
            "latitude": -8.843909,
            "longitude": 13.238297,
            "distance": 0.4226010553063602,
            "name": "EMIS",
            "city": "LUANDA",
            "address": "MARTIRES DO KIFANGONDO",
            "postalCode": "0000",
            "countryCode": "ago",
            "locationType": "outros",
            "locationName": "AGÊNCIA BCI MARTIRES",
            "owner": "EMIS",
            "currencyCode": "AOA"
        },
        {
            "latitude": -8.836987,
            "longitude": 13.237168,
            "distance": 0.4379764827295013,
            "name": "EMIS",
            "city": "LUANDA",
            "address": "RUA DO 1º CONGRESSO DO Nº Nº27/ 29",
            "postalCode": "0000",
            "countryCode": "ago",
            "locationType": "outros",
            "locationName": "AGÊNCIA BE MUTAMBA",
            "owner": "EMIS",
            "currencyCode": "AOA"
        },
        {
            "latitude": -8.843147,
            "longitude": 13.232666,
            "distance": 0.4605030126984258,
            "name": "EMIS",
            "city": "LUANDA",
            "address": "AVENIDA REVOLUÇÃO DE OUTUBRO, S/N",
            "postalCode": "0000",
            "countryCode": "ago",
            "locationType": "outros",
            "locationName": "AGENCIA BFA AERPORTO",
            "owner": "EMIS",
            "currencyCode": "AOA"
        },
        {
            "latitude": -8.842499,
            "longitude": 13.231966,
            "distance": 0.49343587681980267,
            "name": "EMIS",
            "city": "LUANDA",
            "address": "AV. REVOLUÇÃO DE OUTUBRO",
            "postalCode": "0000",
            "countryCode": "ago",
            "locationType": "outros",
            "locationName": "AGÊNCIA CASSENDA",
            "owner": "EMIS",
            "currencyCode": "AOA"
        },
        {
            "latitude": -8.84275,
            "longitude": 13.240645,
            "distance": 0.5443239496946582,
            "name": "EMIS",
            "city": "LUANDA",
            "address": "AV. 21 DE JANEIRO",
            "postalCode": "0000",
            "countryCode": "ago",
            "locationType": "outros",
            "locationName": "AGENCIA BIC CASSEQUEL",
            "owner": "EMIS",
            "currencyCode": "AOA"
        },
        {
            "latitude": -8.836639,
            "longitude": 13.233196,
            "distance": 0.5610725365653246,
            "name": "EMIS",
            "city": "LUANDA",
            "address": "COMANDANTE GIKA",
            "postalCode": "",
            "countryCode": "ago",
            "locationType": "office_building",
            "locationName": "POSTO EPAL ALVALADE",
            "owner": "EMIS",
            "currencyCode": "AOA"
        },
        {
            "latitude": -8.844621,
            "longitude": 13.239766,
            "distance": 0.5861495135414218,
            "name": "EMIS",
            "city": "LUANDA",
            "address": "RUA KEQUEL NORTE",
            "postalCode": "0000",
            "countryCode": "ago",
            "locationType": "office_building",
            "locationName": "ATM SONAIR REFEITÓRIO",
            "owner": "EMIS",
            "currencyCode": "AOA"
        },
        {
            "latitude": -8.838481,
            "longitude": 13.241112,
            "distance": 0.6065224399649882,
            "name": "EMIS",
            "city": "LUANDA",
            "address": "RUA NGOLA MBANDI",
            "postalCode": "0000",
            "countryCode": "ago",
            "locationType": "hospital",
            "locationName": "CLÍNICA DO EXERCITO",
            "owner": "EMIS",
            "currencyCode": "AOA"
        },
        {
            "latitude": -8.84444,
            "longitude": 13.23167,
            "distance": 0.6348516149282416,
            "name": "EMIS",
            "city": "LUANDA",
            "address": "RUA Nº3- BAIRRO CASSENDA",
            "postalCode": "0000",
            "countryCode": "ago",
            "locationType": "outros",
            "locationName": "AGENCIA BMA CASSENDA",
            "owner": "EMIS",
            "currencyCode": "AOA"
        },
        {
            "latitude": -8.836133,
            "longitude": 13.232412,
            "distance": 0.6575534447674529,
            "name": "EMIS",
            "city": "LUANDA",
            "address": "COMANDANTE JIKA",
            "postalCode": "",
            "countryCode": "ago",
            "locationType": "hospital",
            "locationName": "CLINICA DA ENDE",
            "owner": "EMIS",
            "currencyCode": "AOA"
        },
        {
            "latitude": -8.844214,
            "longitude": 13.241035,
            "distance": 0.6622086474451687,
            "name": "EMIS",
            "city": "LUANDA",
            "address": "RUA 5",
            "postalCode": "0000",
            "countryCode": "ago",
            "locationType": "office_building",
            "locationName": "CAMBISTA",
            "owner": "EMIS",
            "currencyCode": "AOA"
        },
        {
            "latitude": -8.846764,
            "longitude": 13.235589,
            "distance": 0.6673863021391082,
            "name": "EMIS",
            "city": "LUANDA",
            "address": "AVENIDA 21 DE JANEIRO",
            "postalCode": "0000",
            "countryCode": "ago",
            "locationType": "office_building",
            "locationName": "TORRES DE CONTROL ENANA",
            "owner": "EMIS",
            "currencyCode": "AOA"
        },
        {
            "latitude": -8.83445,
            "longitude": 13.23472,
            "distance": 0.7206308623531599,
            "name": "EMIS",
            "city": "LUANDA",
            "address": "RUA CMD.GIKA- COND.ALVALADE RESIDENCE TORRE A BL.2",
            "postalCode": "0000",
            "countryCode": "ago",
            "locationType": "outros",
            "locationName": "AGÊNCIA BMA",
            "owner": "EMIS",
            "currencyCode": "AOA"
        },
        {
            "latitude": -8.84256,
            "longitude": 13.242622,
            "distance": 0.7424616699009824,
            "name": "EMIS",
            "city": "LUANDA",
            "address": "AV. M. ALVES DE PINHO, S/N",
            "postalCode": "0000",
            "countryCode": "ago",
            "locationType": "outros",
            "locationName": "AGENCIA BFA CASSEQUEL",
            "owner": "EMIS",
            "currencyCode": "AOA"
        },
        {
            "latitude": -8.846697,
            "longitude": 13.232622,
            "distance": 0.7609222061778814,
            "name": "EMIS",
            "city": "LUANDA",
            "address": "AVENIDA 21 JANEIRO",
            "postalCode": "0000",
            "countryCode": "ago",
            "locationType": "airport",
            "locationName": "AEROPORTO 4 DE FEVEREIRO - TERMINAL DE CARGAS",
            "owner": "EMIS",
            "currencyCode": "AOA"
        },
        {
            "latitude": -8.847601,
            "longitude": 13.234778,
            "distance": 0.7719729299660831,
            "name": "EMIS",
            "city": "LUANDA",
            "address": "AVENIDA REVOLUÇÃO DE OUTUBRO",
            "postalCode": "0000",
            "countryCode": "ago",
            "locationType": "airport",
            "locationName": "ATM AEROPORTO ITERNACIOANAL -PARTIDAS",
            "owner": "EMIS",
            "currencyCode": "AOA"
        },
        {
            "latitude": -8.847622,
            "longitude": 13.234883,
            "distance": 0.772171681456091,
            "name": "EMIS",
            "city": "LUANDA",
            "address": "AVENIDA 4 DE FEVEREIRO",
            "postalCode": "",
            "countryCode": "ago",
            "locationType": "airport",
            "locationName": "AGÊNCIA AEROPORTO",
            "owner": "EMIS",
            "currencyCode": "AOA"
        },
        {
            "latitude": -8.847887,
            "longitude": 13.235239,
            "distance": 0.7955677909016524,
            "name": "EMIS",
            "city": "LUANDA",
            "address": "AV 21 DE JANEIRO",
            "postalCode": "0000",
            "countryCode": "ago",
            "locationType": "airport",
            "locationName": "AEROPORTO INTERNACIONAL 4 DE FEVEREIRO- CHEGADAS",
            "owner": "EMIS",
            "currencyCode": "AOA"
        },
        {
            "latitude": -8.847197,
            "longitude": 13.232748,
            "distance": 0.8029883898073692,
            "name": "EMIS",
            "city": "LUANDA",
            "address": "ALFÂNDEGA",
            "postalCode": "",
            "countryCode": "ago",
            "locationType": "airport",
            "locationName": "AGENCIA BSOL AEROPORTO",
            "owner": "EMIS",
            "currencyCode": "AOA"
        },
        {
            "latitude": -8.847917,
            "longitude": 13.234862,
            "distance": 0.8048815760233697,
            "name": "EMIS",
            "city": "LUANDA",
            "address": "AVENIDA 4 DE FEVEREIRO 4",
            "postalCode": "",
            "countryCode": "ago",
            "locationType": "airport",
            "locationName": "EMPRESA GHASIST",
            "owner": "EMIS",
            "currencyCode": "AOA"
        },
        {
            "latitude": -8.836617,
            "longitude": 13.230114,
            "distance": 0.8052515781775224,
            "name": "EMIS",
            "city": "LUANDA",
            "address": "COMANDANTE GIKA 225",
            "postalCode": "",
            "countryCode": "ago",
            "locationType": "hospital",
            "locationName": "AGENCIA BAI CLINICA GIRASOL",
            "owner": "EMIS",
            "currencyCode": "AOA"
        },
        {
            "latitude": -8.845158,
            "longitude": 13.241997,
            "distance": 0.8094550182681058,
            "name": "EMIS",
            "city": "LUANDA",
            "address": "RUA DO AEROPORTO",
            "postalCode": "0000",
            "countryCode": "ago",
            "locationType": "airport",
            "locationName": "ATM-AEROPORTO DOMESTICO",
            "owner": "EMIS",
            "currencyCode": "AOA"
        },
        {
            "latitude": -8.833072,
            "longitude": 13.235455,
            "distance": 0.8605315656786323,
            "name": "EMIS",
            "city": "LUANDA",
            "address": "RUA EMÍLIO MBIDI, Nº 84",
            "postalCode": "0000",
            "countryCode": "ago",
            "locationType": "outros",
            "locationName": "AGÊNCIA ALVALADE",
            "owner": "EMIS",
            "currencyCode": "AOA"
        },
        {
            "latitude": -8.83299,
            "longitude": 13.2362,
            "distance": 0.8667122082054155,
            "name": "EMIS",
            "city": "LUANDA",
            "address": "RUA EMILIO MBINDI Nº 84",
            "postalCode": "0000",
            "countryCode": "ago",
            "locationType": "outros",
            "locationName": "AGÊNCIA BIC ALVALADE",
            "owner": "EMIS",
            "currencyCode": "AOA"
        },
        {
            "latitude": -8.83308,
            "longitude": 13.2402,
            "distance": 0.9674655874985315,
            "name": "EMIS",
            "city": "LUANDA",
            "address": "LARGO DAS HÉROINAS",
            "postalCode": "0000",
            "countryCode": "ago",
            "locationType": "outros",
            "locationName": "AGÊNCIA HÉROINAS",
            "owner": "EMIS",
            "currencyCode": "AOA"
        },
        {
            "latitude": -8.831558,
            "longitude": 13.236987,
            "distance": 1.0304205677023626,
            "name": "EMIS",
            "city": "LUANDA",
            "address": "EDIFICIO SOLAR DE ALVALDE GIKA",
            "postalCode": "0000",
            "countryCode": "ago",
            "locationType": "outros",
            "locationName": "AGÊNCIA COMANDANTE GIKA",
            "owner": "EMIS",
            "currencyCode": "AOA"
        }
    ]
}